{
    "postos": [
        {
            "nome": "Centro Automotivo Tradição Nordestina Ltda",
            "endereco": "Rua   Decio Angelo Chiuvitti, 157 - Vila Giordano, São Paulo - SP, Brasil",
            "gasolina_comum": 0,
            "gasolina_aditivada": 0,
            "ethanol_comum": 0,
            "ethanol_aditivado": 0,
            "diesel_aditivado": 0,
            "latitude": -23.499000549316,
            "longitude": -46.441101074219
        },
        {
            "nome": "JASPE",
            "endereco": "Rua Henrique Dumont, 103 - Vila Gomes Cardim, São Paulo - SP, Brasil",
            "gasolina_comum": 0,
            "gasolina_aditivada": 0,
            "ethanol_comum": 0,
            "ethanol_aditivado": 0,
            "diesel_aditivado": 0,
            "latitude": -23.543500900269,
            "longitude": -46.555801391602
        },
        {
            "nome": "Carrefour Comércio e Indústria Ltda",
            "endereco": "Avenida Professor Luiz Ignacio de Anhaia Mello, 6143 - Vila Graciosa, São Paulo - SP, Brasil",
            "gasolina_comum": 0,
            "gasolina_aditivada": 0,
            "ethanol_comum": 0,
            "ethanol_aditivado": 0,
            "diesel_aditivado": 0,
            "latitude": -23.591299057007,
            "longitude": -46.542301177979
        },
        {
            "nome": "Coml. de Lubrifi. Garotao Ltda",
            "endereco": "Rua Itingussu, - Vila Granada, São Paulo - SP, Brasil",
            "gasolina_comum": 0,
            "gasolina_aditivada": 0,
            "ethanol_comum": 0,
            "ethanol_aditivado": 0,
            "diesel_aditivado": 0,
            "latitude": -23.5233592,
            "longitude": -46.5127384
        },
        {
            "nome": "Comércio de Lubrificantes Garotão Ltda",
            "endereco": "Rua Itingussu, 853 - Vila Granada, São Paulo - SP, Brasil",
            "gasolina_comum": 0,
            "gasolina_aditivada": 0,
            "ethanol_comum": 0,
            "ethanol_aditivado": 0,
            "diesel_aditivado": 0,
            "latitude": -23.524599075317,
            "longitude": -46.506500244141
        },
        {
            "nome": "Brasao Auto Serviço Ltda",
            "endereco": "Rua Felipe Galvao, 589 - Vila Granada, São Paulo - SP, Brasil",
            "gasolina_comum": 0,
            "gasolina_aditivada": 0,
            "ethanol_comum": 0,
            "ethanol_aditivado": 0,
            "diesel_aditivado": 0,
            "latitude": -23.523099899292,
            "longitude": -46.514999389648
        },
        {
            "nome": "Chou Gás Auto Posto Ltda",
            "endereco": "Rua Professor Cardoso de Mello Neto, 1516 - Vila Guacuri, São Paulo - SP, Brasil",
            "gasolina_comum": 0,
            "gasolina_aditivada": 0,
            "ethanol_comum": 0,
            "ethanol_aditivado": 0,
            "diesel_aditivado": 0,
            "latitude": -23.697099685669,
            "longitude": -46.633701324463
        },
        {
            "nome": "Prime Auto Posto Ltda",
            "endereco": "Avenida Diederichsen, 1144 - Vila Guarani, São Paulo - SP, Brasil",
            "gasolina_comum": 0,
            "gasolina_aditivada": 0,
            "ethanol_comum": 0,
            "ethanol_aditivado": 0,
            "diesel_aditivado": 0,
            "latitude": -23.632600784302,
            "longitude": -46.638198852539
        },
        {
            "nome": "Posto Central do Guarani Ltda",
            "endereco": "Avenida Sapopemba, 5.690 - Vila Guarani, São Paulo - SP, Brasil",
            "gasolina_comum": 0,
            "gasolina_aditivada": 0,
            "ethanol_comum": 0,
            "ethanol_aditivado": 0,
            "diesel_aditivado": 0,
            "latitude": -23.582099914551,
            "longitude": -46.536201477051
        },
        {
            "nome": "Auto Posto 500 Milhas Ltda",
            "endereco": "Avenida Diederichsen, 1144 - Vila Guarani, São Paulo - SP, Brasil",
            "gasolina_comum": 0,
            "gasolina_aditivada": 0,
            "ethanol_comum": 0,
            "ethanol_aditivado": 0,
            "diesel_aditivado": 0,
            "latitude": -23.632600784302,
            "longitude": -46.638198852539
        },
        {
            "nome": "Auto Posto Nova Itaquera Ltda",
            "endereco": "Avenida Imperador, 5080 - Vila Guarani, São Paulo - SP, Brasil",
            "gasolina_comum": 0,
            "gasolina_aditivada": 0,
            "ethanol_comum": 0,
            "ethanol_aditivado": 0,
            "diesel_aditivado": 0,
            "latitude": -23.515399932861,
            "longitude": -46.459999084473
        },
        {
            "nome": "Auto Posto Brasil",
            "endereco": "Av. Zaki Narchi, 1826 - Vila Guilherme, São Paulo - SP, Brasil",
            "gasolina_comum": 0,
            "gasolina_aditivada": 0,
            "ethanol_comum": 0,
            "ethanol_aditivado": 0,
            "diesel_aditivado": 0,
            "latitude": -23.504,
            "longitude": -46.615
        },
        {
            "nome": "Posto Ipiranga",
            "endereco": "Av. Joaquina Ramalho, 151 - Vila Guilherme, São Paulo - SP, Brasil",
            "gasolina_comum": 0,
            "gasolina_aditivada": 0,
            "ethanol_comum": 0,
            "ethanol_aditivado": 0,
            "diesel_aditivado": 0,
            "latitude": -23.5172,
            "longitude": -46.6086
        },
        {
            "nome": "Automotivo Derivados de Petroleo Spr Ltda",
            "endereco": "Avenida Joaquina Ramalho, 886 - Vila Guilherme, São Paulo - SP, Brasil",
            "gasolina_comum": 0,
            "gasolina_aditivada": 0,
            "ethanol_comum": 0,
            "ethanol_aditivado": 0,
            "diesel_aditivado": 0,
            "latitude": -23.512800216675,
            "longitude": -46.606800079346
        },
        {
            "nome": "Carrefour Comercio e Industria Ltda",
            "endereco": "Avenida   Morvan Dias de Figueiredo, 3177 - Vila Guilherme, São Paulo - SP, Brasil",
            "gasolina_comum": 0,
            "gasolina_aditivada": 0,
            "ethanol_comum": 0,
            "ethanol_aditivado": 0,
            "diesel_aditivado": 0,
            "latitude": -23.523000717163,
            "longitude": -46.601501464844
        },
        {
            "nome": "Carrefour Comercio e Industria Ltda",
            "endereco": "Avenida Morvan Dias Figueiredo, 3177 Parte - Vila Guilherme, São Paulo - SP, Brasil",
            "gasolina_comum": 0,
            "gasolina_aditivada": 0,
            "ethanol_comum": 0,
            "ethanol_aditivado": 0,
            "diesel_aditivado": 0,
            "latitude": -23.5216644,
            "longitude": -46.5988346
        },
        {
            "nome": "Auto Posto Pacific I Ltda",
            "endereco": "Avenida   Morvan Dias de Figueiredo, 1709 - Vila Guilherme, São Paulo - SP, Brasil",
            "gasolina_comum": 0,
            "gasolina_aditivada": 0,
            "ethanol_comum": 0,
            "ethanol_aditivado": 0,
            "diesel_aditivado": 0,
            "latitude": -23.521200180054,
            "longitude": -46.612598419189
        },
        {
            "nome": "Auto Posto Portal da Vila Guilherme Ltda",
            "endereco": "Avenida Joaquina Ramalho, 474 Ao 498 - Vila Guilherme, São Paulo - SP, Brasil",
            "gasolina_comum": 0,
            "gasolina_aditivada": 0,
            "ethanol_comum": 0,
            "ethanol_aditivado": 0,
            "diesel_aditivado": 0,
            "latitude": -23.543199539185,
            "longitude": -46.629199981689
        },
        {
            "nome": "Argetax - Adm. e Part. Em Empreend. Comerciais Ltda",
            "endereco": "Rua Chico Pontes, 1292 - Vila Guilherme, São Paulo - SP, Brasil",
            "gasolina_comum": 0,
            "gasolina_aditivada": 0,
            "ethanol_comum": 0,
            "ethanol_aditivado": 0,
            "diesel_aditivado": 0,
            "latitude": -23.508699417114,
            "longitude": -46.600399017334
        },
        {
            "nome": "Auto Posto Guiquirino Ltda Epp",
            "endereco": "Rua Sao Quirino, 298 - Vila Guilherme, São Paulo - SP, Brasil",
            "gasolina_comum": 0,
            "gasolina_aditivada": 0,
            "ethanol_comum": 0,
            "ethanol_aditivado": 0,
            "diesel_aditivado": 0,
            "latitude": -23.513299942017,
            "longitude": -46.60290145874
        },
        {
            "nome": "Posto Vila Rica Derivados de Petroleo Ltda",
            "endereco": "Avenida Joaquina Ramalho, 886 - Vila Guilherme, São Paulo - SP, Brasil",
            "gasolina_comum": 0,
            "gasolina_aditivada": 0,
            "ethanol_comum": 0,
            "ethanol_aditivado": 0,
            "diesel_aditivado": 0,
            "latitude": -23.512800216675,
            "longitude": -46.606800079346
        },
        {
            "nome": "Auto Posto Guilherme São Paulo Ltda",
            "endereco": "Avenida Guilherme, 1639 - Vila Guilherme, São Paulo - SP, Brasil",
            "gasolina_comum": 0,
            "gasolina_aditivada": 0,
            "ethanol_comum": 0,
            "ethanol_aditivado": 0,
            "diesel_aditivado": 0,
            "latitude": -23.509199142456,
            "longitude": -46.600498199463
        },
        {
            "nome": "Posto de Servicos Automotivos Logus Ltda",
            "endereco": "Avenida Guilherme, 1107 - Vila Guilherme, São Paulo - SP, Brasil",
            "gasolina_comum": 0,
            "gasolina_aditivada": 0,
            "ethanol_comum": 0,
            "ethanol_aditivado": 0,
            "diesel_aditivado": 0,
            "latitude": -23.513500213623,
            "longitude": -46.603000640869
        },
        {
            "nome": "Auto Posto Manuela Ltda",
            "endereco": "Rua Maria Candida, 1001 - Vila Guilherme, São Paulo - SP, Brasil",
            "gasolina_comum": 0,
            "gasolina_aditivada": 0,
            "ethanol_comum": 0,
            "ethanol_aditivado": 0,
            "diesel_aditivado": 0,
            "latitude": -23.504999160767,
            "longitude": -46.605800628662
        },
        {
            "nome": "Argetax Administracao e Participacoes Em Empreendimentos Comerciais Ltda",
            "endereco": "Rua Chico Pontes, 1292 - Vila Guilherme, São Paulo - SP, Brasil",
            "gasolina_comum": 0,
            "gasolina_aditivada": 0,
            "ethanol_comum": 0,
            "ethanol_aditivado": 0,
            "diesel_aditivado": 0,
            "latitude": -23.508899688721,
            "longitude": -46.600399017334
        },
        {
            "nome": "Auto Posto Guilherme São Paulo Ltda",
            "endereco": "Avenida Guilherme, S/n - Vila Guilherme, São Paulo - SP, Brasil",
            "gasolina_comum": 0,
            "gasolina_aditivada": 0,
            "ethanol_comum": 0,
            "ethanol_aditivado": 0,
            "diesel_aditivado": 0,
            "latitude": -23.51490020752,
            "longitude": -46.603698730469
        },
        {
            "nome": "AUTO POSTO MARSELHESA LTDA",
            "endereco": "Rua Maria Candida, 2179 - Vila Guilherme, São Paulo - SP, Brasil",
            "gasolina_comum": 0,
            "gasolina_aditivada": 0,
            "ethanol_comum": 0,
            "ethanol_aditivado": 0,
            "diesel_aditivado": 0,
            "latitude": -23.509300231934,
            "longitude": -46.595500946045
        },
        {
            "nome": "Contdes",
            "endereco": "Avenida Guilherme, 374 - Vila Guilherme, São Paulo - SP, Brasil",
            "gasolina_comum": 0,
            "gasolina_aditivada": 0,
            "ethanol_comum": 0,
            "ethanol_aditivado": 0,
            "diesel_aditivado": 0,
            "latitude": -23.519300460815,
            "longitude": -46.606201171875
        },
        {
            "nome": "Costa Brava",
            "endereco": "Avenida Otto Baumgart, S/n - Vila Guilherme, São Paulo - SP, Brasil",
            "gasolina_comum": 0,
            "gasolina_aditivada": 0,
            "ethanol_comum": 0,
            "ethanol_aditivado": 0,
            "diesel_aditivado": 0,
            "latitude": -23.513299942017,
            "longitude": -46.616100311279
        },
        {
            "nome": "Major",
            "endereco": "Rua Maria Candida, 1619 - Vila Guilherme, São Paulo - SP, Brasil",
            "gasolina_comum": 0,
            "gasolina_aditivada": 0,
            "ethanol_comum": 0,
            "ethanol_aditivado": 0,
            "diesel_aditivado": 0,
            "latitude": -23.507099151611,
            "longitude": -46.599899291992
        },
        {
            "nome": "Musketo",
            "endereco": "Avenida Joaquina Ramalho, S/n - Vila Guilherme, São Paulo - SP, Brasil",
            "gasolina_comum": 0,
            "gasolina_aditivada": 0,
            "ethanol_comum": 0,
            "ethanol_aditivado": 0,
            "diesel_aditivado": 0,
            "latitude": -23.510999679565,
            "longitude": -46.60599899292
        },
        {
            "nome": "Novo Ideal",
            "endereco": "Rua Maria Cândida, 1850 - Vila Guilherme, São Paulo - SP, Brasil",
            "gasolina_comum": 0,
            "gasolina_aditivada": 0,
            "ethanol_comum": 0,
            "ethanol_aditivado": 0,
            "diesel_aditivado": 0,
            "latitude": -23.507999420166,
            "longitude": -46.59769821167
        },
        {
            "nome": "Auto Posto Ilha de Capri Ltda",
            "endereco": "Rua Almeida Brandão, 604 - Vila Guilhermina, São Paulo - SP, Brasil",
            "gasolina_comum": 0,
            "gasolina_aditivada": 0,
            "ethanol_comum": 0,
            "ethanol_aditivado": 0,
            "diesel_aditivado": 0,
            "latitude": -23.534799575806,
            "longitude": -46.511001586914
        },
        {
            "nome": "Valentino Jose Naime Zambone - Combustiveis",
            "endereco": "Avenida Doutor Ricardo Jafet, 3400 - Vila Gumercindo, São Paulo - SP, Brasil",
            "gasolina_comum": 0,
            "gasolina_aditivada": 0,
            "ethanol_comum": 0,
            "ethanol_aditivado": 0,
            "diesel_aditivado": 0,
            "latitude": -23.604900360107,
            "longitude": -46.626399993896
        },
        {
            "nome": "Auto Posto Galena Ltda",
            "endereco": "Avenida Dr Ricardo Jafet, 3274 - Vila Gumercindo, São Paulo - SP, Brasil",
            "gasolina_comum": 0,
            "gasolina_aditivada": 0,
            "ethanol_comum": 0,
            "ethanol_aditivado": 0,
            "diesel_aditivado": 0,
            "latitude": -23.603000640869,
            "longitude": -46.625499725342
        },
        {
            "nome": "Posto Tigrao",
            "endereco": "Avenida Doutor Ricardo Jafet, 3400 - Vila Gumercindo, São Paulo - SP, Brasil",
            "gasolina_comum": 0,
            "gasolina_aditivada": 0,
            "ethanol_comum": 0,
            "ethanol_aditivado": 0,
            "diesel_aditivado": 0,
            "latitude": -23.604900360107,
            "longitude": -46.626399993896
        },
        {
            "nome": "Auto Posto Shekinah Ltda",
            "endereco": "Avenida Julio Buono, 952 - Vila Gustavo, São Paulo - SP, Brasil",
            "gasolina_comum": 0,
            "gasolina_aditivada": 0,
            "ethanol_comum": 0,
            "ethanol_aditivado": 0,
            "diesel_aditivado": 0,
            "latitude": -23.49049949646,
            "longitude": -46.595699310303
        },
        {
            "nome": "Auto Posto Cibele Eireli",
            "endereco": "Avenida Julio Buono, 1747 - Vila Gustavo, São Paulo - SP, Brasil",
            "gasolina_comum": 0,
            "gasolina_aditivada": 0,
            "ethanol_comum": 0,
            "ethanol_aditivado": 0,
            "diesel_aditivado": 0,
            "latitude": -23.4844088,
            "longitude": -46.591568
        },
        {
            "nome": "Auto Posto Julio Buono Ltda",
            "endereco": "Avenida Julio Buono, 636 - Vila Gustavo, São Paulo - SP, Brasil",
            "gasolina_comum": 0,
            "gasolina_aditivada": 0,
            "ethanol_comum": 0,
            "ethanol_aditivado": 0,
            "diesel_aditivado": 0,
            "latitude": -23.492700576782,
            "longitude": -46.597499847412
        },
        {
            "nome": "Auto Posto Estrela de Vila Gustavo",
            "endereco": "Avenida Julio Buono, 948 - Vila Gustavo, São Paulo - SP, Brasil",
            "gasolina_comum": 0,
            "gasolina_aditivada": 0,
            "ethanol_comum": 0,
            "ethanol_aditivado": 0,
            "diesel_aditivado": 0,
            "latitude": -23.49049949646,
            "longitude": -46.595798492432
        },
        {
            "nome": "Posto Providencia Ltda",
            "endereco": "Avenida Julio Buono, 1747 - Vila Gustavo, São Paulo - SP, Brasil",
            "gasolina_comum": 0,
            "gasolina_aditivada": 0,
            "ethanol_comum": 0,
            "ethanol_aditivado": 0,
            "diesel_aditivado": 0,
            "latitude": -23.484600067139,
            "longitude": -46.591598510742
        },
        {
            "nome": "Posto Ale Vila Leopoldina",
            "endereco": "Avenida Queiroz Filho,1310 - Vila Hamburguesa, São Paulo - SP, Brasil",
            "gasolina_comum": 0,
            "gasolina_aditivada": 0,
            "ethanol_comum": 0,
            "ethanol_aditivado": 0,
            "diesel_aditivado": 0,
            "latitude": -23.541091,
            "longitude": -46.73021
        },
        {
            "nome": "Macgás Auto Posto Ltda",
            "endereco": "Avenida Doutor Gastão Vidigal, 1209 - Vila Hamburguesa, São Paulo - SP, Brasil",
            "gasolina_comum": 0,
            "gasolina_aditivada": 0,
            "ethanol_comum": 0,
            "ethanol_aditivado": 0,
            "diesel_aditivado": 0,
            "latitude": -23.531799316406,
            "longitude": -46.736598968506
        },
        {
            "nome": "Xingu Auto Posto Ltda",
            "endereco": "Rua Cordilheiras, 134 - Vila Hamburguesa, São Paulo - SP, Brasil",
            "gasolina_comum": 0,
            "gasolina_aditivada": 0,
            "ethanol_comum": 0,
            "ethanol_aditivado": 0,
            "diesel_aditivado": 0,
            "latitude": -23.527299880981,
            "longitude": -46.724300384521
        },
        {
            "nome": "Posto Joia",
            "endereco": "Avenida Almirante Delamare, 1335 - Vila Heliopolis, São Paulo - SP, Brasil",
            "gasolina_comum": 0,
            "gasolina_aditivada": 0,
            "ethanol_comum": 0,
            "ethanol_aditivado": 0,
            "diesel_aditivado": 0,
            "latitude": -23.607000350952,
            "longitude": -46.592998504639
        },
        {
            "nome": "Auto Posto Seven Ltda",
            "endereco": "Avenida Imperatriz Leopoldina, 1389 - Vila Imperatriz, São Paulo - SP, Brasil",
            "gasolina_comum": 0,
            "gasolina_aditivada": 0,
            "ethanol_comum": 0,
            "ethanol_aditivado": 0,
            "diesel_aditivado": 0,
            "latitude": -23.533399581909,
            "longitude": -46.728500366211
        },
        {
            "nome": "Auto Posto Seven Ltda",
            "endereco": "Avenida Imperatriz Leopoldina, S/n - Vila Imperatriz, São Paulo - SP, Brasil",
            "gasolina_comum": 0,
            "gasolina_aditivada": 0,
            "ethanol_comum": 0,
            "ethanol_aditivado": 0,
            "diesel_aditivado": 0,
            "latitude": -23.530500411987,
            "longitude": -46.731201171875
        },
        {
            "nome": "Espanha Serviços Automotivos Ltda",
            "endereco": "Rua Jeriquara, 109 - Vila Inah, São Paulo - SP, Brasil",
            "gasolina_comum": 0,
            "gasolina_aditivada": 0,
            "ethanol_comum": 0,
            "ethanol_aditivado": 0,
            "diesel_aditivado": 0,
            "latitude": -23.59460067749,
            "longitude": -46.721298217773
        },
        {
            "nome": "Auto Posto Casa Nova Ltda",
            "endereco": "Avenida do Oratorio, 1.892 - Vila Independência, São Paulo - SP, Brasil",
            "gasolina_comum": 0,
            "gasolina_aditivada": 0,
            "ethanol_comum": 0,
            "ethanol_aditivado": 0,
            "diesel_aditivado": 0,
            "latitude": -23.597539,
            "longitude": -46.5411246
        },
        {
            "nome": "Auto Posto Brasipan Ltda",
            "endereco": "Rua Auriverde, 492 - Vila Independência, São Paulo - SP, Brasil",
            "gasolina_comum": 0,
            "gasolina_aditivada": 0,
            "ethanol_comum": 0,
            "ethanol_aditivado": 0,
            "diesel_aditivado": 0,
            "latitude": -23.592699050903,
            "longitude": -46.594200134277
        },
        {
            "nome": "Posto de Serviços J2r Ltda",
            "endereco": "Avenida do Oratório, 4912 - Vila Industrial, São Paulo - SP, Brasil",
            "gasolina_comum": 0,
            "gasolina_aditivada": 0,
            "ethanol_comum": 0,
            "ethanol_aditivado": 0,
            "diesel_aditivado": 0,
            "latitude": -23.603099822998,
            "longitude": -46.52730178833
        },
        {
            "nome": "Posto Tres Lagoas Ltda",
            "endereco": "Rua Tres Lagoas, 20 - Vila Industrial, São Paulo - SP, Brasil",
            "gasolina_comum": 0,
            "gasolina_aditivada": 0,
            "ethanol_comum": 0,
            "ethanol_aditivado": 0,
            "diesel_aditivado": 0,
            "latitude": -23.610300064087,
            "longitude": -46.532299041748
        },
        {
            "nome": "Auto Posto Sabia",
            "endereco": "Avenida do Oratório, 4912 - Vila Industrial, São Paulo - SP, Brasil",
            "gasolina_comum": 0,
            "gasolina_aditivada": 0,
            "ethanol_comum": 0,
            "ethanol_aditivado": 0,
            "diesel_aditivado": 0,
            "latitude": -23.603000640869,
            "longitude": -46.52730178833
        },
        {
            "nome": "Posto Ale",
            "endereco": "Av. do Oratório, 5559 - Vila Industrial, São Paulo - SP, Brasil",
            "gasolina_comum": 0,
            "gasolina_aditivada": 0,
            "ethanol_comum": 0,
            "ethanol_aditivado": 0,
            "diesel_aditivado": 0,
            "latitude": -23.6085,
            "longitude": -46.5233
        },
        {
            "nome": "Centro Automotivo Elos de Ouro Ltda",
            "endereco": "Rua Cerro Cora, 1945 - Vila Ipojuca, São Paulo - SP, Brasil",
            "gasolina_comum": 0,
            "gasolina_aditivada": 0,
            "ethanol_comum": 0,
            "ethanol_aditivado": 0,
            "diesel_aditivado": 0,
            "latitude": -23.535299301147,
            "longitude": -46.714199066162
        },
        {
            "nome": "Centro Automotiivo Millennium Ltda",
            "endereco": "Rua Cerro Cora, 1945 - Vila Ipojuca, São Paulo - SP, Brasil",
            "gasolina_comum": 0,
            "gasolina_aditivada": 0,
            "ethanol_comum": 0,
            "ethanol_aditivado": 0,
            "diesel_aditivado": 0,
            "latitude": -23.535299301147,
            "longitude": -46.712699890137
        },
        {
            "nome": "Auto Posto Mec Ltda",
            "endereco": "Avenida Nossa Senhora do Sabara, 1500 - Vila Isa, São Paulo - SP, Brasil",
            "gasolina_comum": 0,
            "gasolina_aditivada": 0,
            "ethanol_comum": 0,
            "ethanol_aditivado": 0,
            "diesel_aditivado": 0,
            "latitude": -23.667999267578,
            "longitude": -46.689701080322
        },
        {
            "nome": "Auto Posto X 5 Ltda - Me",
            "endereco": "Rua Lopes da Costa, 1091 - Vila Isabel, São Paulo - SP, Brasil",
            "gasolina_comum": 0,
            "gasolina_aditivada": 0,
            "ethanol_comum": 0,
            "ethanol_aditivado": 0,
            "diesel_aditivado": 0,
            "latitude": -23.4601838,
            "longitude": -46.5719589
        },
        {
            "nome": "Auto Posto Novo México Ltda",
            "endereco": "Avenida Julio Buono, 165 - Vila Izolina Mazzei, São Paulo - SP, Brasil",
            "gasolina_comum": 0,
            "gasolina_aditivada": 0,
            "ethanol_comum": 0,
            "ethanol_aditivado": 0,
            "diesel_aditivado": 0,
            "latitude": -23.497299194336,
            "longitude": -46.598899841309
        },
        {
            "nome": "Centro Automotivo México Ltda",
            "endereco": "Avenida Julio Buono, 165 - Vila Izolina Mazzei, São Paulo - SP, Brasil",
            "gasolina_comum": 0,
            "gasolina_aditivada": 0,
            "ethanol_comum": 0,
            "ethanol_aditivado": 0,
            "diesel_aditivado": 0,
            "latitude": -23.497299194336,
            "longitude": -46.598899841309
        },
        {
            "nome": "Posto de Serviço Esplanada Ltda",
            "endereco": "Rua Coronel Marcilio Franco, 1046 - Vila Izolina Mazzei, São Paulo - SP, Brasil",
            "gasolina_comum": 0,
            "gasolina_aditivada": 0,
            "ethanol_comum": 0,
            "ethanol_aditivado": 0,
            "diesel_aditivado": 0,
            "latitude": -23.499700546265,
            "longitude": -46.601299285889
        },
        {
            "nome": "Torque Comércio Varejista de Combustíveis Ltda",
            "endereco": "Avenida   Jacu-pessego, 1.406 - Vila Jacui, São Paulo - SP, Brasil",
            "gasolina_comum": 0,
            "gasolina_aditivada": 0,
            "ethanol_comum": 0,
            "ethanol_aditivado": 0,
            "diesel_aditivado": 0,
            "latitude": -23.571500778198,
            "longitude": -46.446701049805
        },
        {
            "nome": "Auto Posto no Jacu-pêssego Ltda",
            "endereco": "Avenida Jacu Pêssego - Nova Trabalhadores, 3301 - Vila Jacui, São Paulo - SP, Brasil",
            "gasolina_comum": 0,
            "gasolina_aditivada": 0,
            "ethanol_comum": 0,
            "ethanol_aditivado": 0,
            "diesel_aditivado": 0,
            "latitude": -23.522199630737,
            "longitude": -46.455799102783
        },
        {
            "nome": "Sergio Motta Marques",
            "endereco": "Avenida  Jacu-pessego/ Nova Trabalhadores, 45 - Vila Jacui, São Paulo - SP, Brasil",
            "gasolina_comum": 0,
            "gasolina_aditivada": 0,
            "ethanol_comum": 0,
            "ethanol_aditivado": 0,
            "diesel_aditivado": 0,
            "latitude": -23.543800354004,
            "longitude": -46.447898864746
        },
        {
            "nome": "Carrefour Comércio e Indústria Ltda",
            "endereco": "Avenida Jacu Pêssego / Nova Trabalhadores, 1406 - Vila Jacui, São Paulo - SP, Brasil",
            "gasolina_comum": 0,
            "gasolina_aditivada": 0,
            "ethanol_comum": 0,
            "ethanol_aditivado": 0,
            "diesel_aditivado": 0,
            "latitude": -23.506900787354,
            "longitude": -46.456600189209
        },
        {
            "nome": "Auto Posto Vitrine Ii Ltda",
            "endereco": "Rua   Americo Sugai, 522 - Vila Jacui, São Paulo - SP, Brasil",
            "gasolina_comum": 0,
            "gasolina_aditivada": 0,
            "ethanol_comum": 0,
            "ethanol_aditivado": 0,
            "diesel_aditivado": 0,
            "latitude": -23.505300521851,
            "longitude": -46.456699371338
        },
        {
            "nome": "Auto Posto Vitrine Ltda",
            "endereco": "Rua   Americo Sugai, 522 - Vila Jacui, São Paulo - SP, Brasil",
            "gasolina_comum": 0,
            "gasolina_aditivada": 0,
            "ethanol_comum": 0,
            "ethanol_aditivado": 0,
            "diesel_aditivado": 0,
            "latitude": -23.505399703979,
            "longitude": -46.456798553467
        },
        {
            "nome": "Auto Posto Santa Luzita Ltda",
            "endereco": "Avenida Jacu Pessego, 441 - Vila Jacui, São Paulo - SP, Brasil",
            "gasolina_comum": 0,
            "gasolina_aditivada": 0,
            "ethanol_comum": 0,
            "ethanol_aditivado": 0,
            "diesel_aditivado": 0,
            "latitude": -23.5625,
            "longitude": -46.445999145508
        },
        {
            "nome": "Posto de Serviço Naomis Ltda",
            "endereco": "Avenida Jacu Pêssego / Nova Trabalhadores, 1406 - Vila Jacui, São Paulo - SP, Brasil",
            "gasolina_comum": 0,
            "gasolina_aditivada": 0,
            "ethanol_comum": 0,
            "ethanol_aditivado": 0,
            "diesel_aditivado": 0,
            "latitude": -23.506900787354,
            "longitude": -46.456600189209
        },
        {
            "nome": "Auto Posto Enzo Rr Ltda",
            "endereco": "Avenida Jacu Pessego, 441 - Vila Jacui, São Paulo - SP, Brasil",
            "gasolina_comum": 0,
            "gasolina_aditivada": 0,
            "ethanol_comum": 0,
            "ethanol_aditivado": 0,
            "diesel_aditivado": 0,
            "latitude": -23.515300750732,
            "longitude": -46.454898834229
        },
        {
            "nome": "Vitrine",
            "endereco": "Rua Americo Sugai, 522 - Vila Jacui, São Paulo - SP, Brasil",
            "gasolina_comum": 0,
            "gasolina_aditivada": 0,
            "ethanol_comum": 0,
            "ethanol_aditivado": 0,
            "diesel_aditivado": 0,
            "latitude": -23.505599975586,
            "longitude": -46.456600189209
        },
        {
            "nome": "Auto Posto Speed Jaragua Ltda",
            "endereco": "Avenida Candido Portinari, 942 - Vila Jaguara, São Paulo - SP, Brasil",
            "gasolina_comum": 0,
            "gasolina_aditivada": 0,
            "ethanol_comum": 0,
            "ethanol_aditivado": 0,
            "diesel_aditivado": 0,
            "latitude": -23.507600784302,
            "longitude": -46.755500793457
        },
        {
            "nome": "Auto Posto Sete Estrelas Ltda",
            "endereco": "Rua Joaquim de Oliveira Freitas, 32 - Vila Jaguara, São Paulo - SP, Brasil",
            "gasolina_comum": 0,
            "gasolina_aditivada": 0,
            "ethanol_comum": 0,
            "ethanol_aditivado": 0,
            "diesel_aditivado": 0,
            "latitude": -23.506999969482,
            "longitude": -46.746700286865
        },
        {
            "nome": "Auto Posto Baruc Ltda",
            "endereco": "Avenida Candido Portinari, 100 - Vila Jaguara, São Paulo - SP, Brasil",
            "gasolina_comum": 0,
            "gasolina_aditivada": 0,
            "ethanol_comum": 0,
            "ethanol_aditivado": 0,
            "diesel_aditivado": 0,
            "latitude": -23.507900238037,
            "longitude": -46.747398376465
        },
        {
            "nome": "AUTO POSTO MEDICINE BOW",
            "endereco": "Avenida Cândido Portinari, 1141 - Vila Jaguara, São Paulo - SP, Brasil",
            "gasolina_comum": 0,
            "gasolina_aditivada": 0,
            "ethanol_comum": 0,
            "ethanol_aditivado": 0,
            "diesel_aditivado": 0,
            "latitude": -23.505899429321,
            "longitude": -46.756698608398
        },
        {
            "nome": "Posto Jaguara",
            "endereco": "Avenida Candido Portinari, 729 - Vila Jaguara, São Paulo - SP, Brasil",
            "gasolina_comum": 0,
            "gasolina_aditivada": 0,
            "ethanol_comum": 0,
            "ethanol_aditivado": 0,
            "diesel_aditivado": 0,
            "latitude": -23.508600234985,
            "longitude": -46.753799438477
        },
        {
            "nome": "Fase Quattro Anhanguera - Comercio Varejista de Combustiveis Ltda",
            "endereco": "Rua Jair Afonso Inacio, 525 - Vila Jaragua, São Paulo - SP, Brasil",
            "gasolina_comum": 0,
            "gasolina_aditivada": 0,
            "ethanol_comum": 0,
            "ethanol_aditivado": 0,
            "diesel_aditivado": 0,
            "latitude": -23.503299713135,
            "longitude": -46.753299713135
        },
        {
            "nome": "Fase Quattro Anhanguera Com. Varej. de Combustíveis Ltda",
            "endereco": "Rua Jair Afonso Inacio, 525 - Vila Jaragua, São Paulo - SP, Brasil",
            "gasolina_comum": 0,
            "gasolina_aditivada": 0,
            "ethanol_comum": 0,
            "ethanol_aditivado": 0,
            "diesel_aditivado": 0,
            "latitude": -23.501699447632,
            "longitude": -46.754100799561
        },
        {
            "nome": "Posto de Serviços Autom. Biblos",
            "endereco": "Rua Friedrich Von Voith, 13 - Vila Jaragua, São Paulo - SP, Brasil",
            "gasolina_comum": 0,
            "gasolina_aditivada": 0,
            "ethanol_comum": 0,
            "ethanol_aditivado": 0,
            "diesel_aditivado": 0,
            "latitude": -23.448400497437,
            "longitude": -46.734901428223
        },
        {
            "nome": "Posto Presidente '' V ''",
            "endereco": "Rua Jair Afonço Inácio, 525 - Vila Jaragua, São Paulo - SP, Brasil",
            "gasolina_comum": 0,
            "gasolina_aditivada": 0,
            "ethanol_comum": 0,
            "ethanol_aditivado": 0,
            "diesel_aditivado": 0,
            "latitude": -23.5036176,
            "longitude": -46.7526675
        },
        {
            "nome": "Auto Posto 10200 Ltda",
            "endereco": "Rua Giuseppe Boschi, 49 - Vila Joaniza, São Paulo - SP, Brasil",
            "gasolina_comum": 0,
            "gasolina_aditivada": 0,
            "ethanol_comum": 0,
            "ethanol_aditivado": 0,
            "diesel_aditivado": 0,
            "latitude": -23.682800292969,
            "longitude": -46.644901275635
        },
        {
            "nome": "Companhia Brasileira de Distribuição",
            "endereco": "Avenida Corifeu de Azevedo Marques, 4160 4170 - Vila Lageado, São Paulo - SP, Brasil",
            "gasolina_comum": 0,
            "gasolina_aditivada": 0,
            "ethanol_comum": 0,
            "ethanol_aditivado": 0,
            "diesel_aditivado": 0,
            "latitude": -23.56130027771,
            "longitude": -46.746898651123
        },
        {
            "nome": "Auto Posto Tiquatirão Ltda",
            "endereco": "Rua Coronel  Meireles, 1025 1033 - 1043 - Vila Lais, São Paulo - SP, Brasil",
            "gasolina_comum": 0,
            "gasolina_aditivada": 0,
            "ethanol_comum": 0,
            "ethanol_aditivado": 0,
            "diesel_aditivado": 0,
            "latitude": -23.514099121094,
            "longitude": -46.536098480225
        },
        {
            "nome": "Posto de Serviços Automotivos Galapagos Eireli.",
            "endereco": "Avenida  Professor Queiroz  Filho, 1310 - Vila Leopoldina, São Paulo - SP, Brasil",
            "gasolina_comum": 0,
            "gasolina_aditivada": 0,
            "ethanol_comum": 0,
            "ethanol_aditivado": 0,
            "diesel_aditivado": 0,
            "latitude": -23.596000671387,
            "longitude": -46.567100524902
        },
        {
            "nome": "Portal Imperatriz Auto Posto Ltda",
            "endereco": "Avenida Imperatrizleopoldina, 1389 - Vila Leopoldina, São Paulo - SP, Brasil",
            "gasolina_comum": 0,
            "gasolina_aditivada": 0,
            "ethanol_comum": 0,
            "ethanol_aditivado": 0,
            "diesel_aditivado": 0,
            "latitude": -23.533399581909,
            "longitude": -46.728500366211
        },
        {
            "nome": "Portal Imperatriz Auto Posto Ltda. - Epp",
            "endereco": "Avenida Imperatriz Leopoldina, 1389 - Vila Leopoldina, São Paulo - SP, Brasil",
            "gasolina_comum": 0,
            "gasolina_aditivada": 0,
            "ethanol_comum": 0,
            "ethanol_aditivado": 0,
            "diesel_aditivado": 0,
            "latitude": -23.53330039978,
            "longitude": -46.728698730469
        },
        {
            "nome": "Posto de Serviços Belvedere Ltda",
            "endereco": "Av. Dr. Gastão Vidigal - Vila Leopoldina, São Paulo - SP, Brasil",
            "gasolina_comum": 0,
            "gasolina_aditivada": 0,
            "ethanol_comum": 0,
            "ethanol_aditivado": 0,
            "diesel_aditivado": 0,
            "latitude": -23.5358,
            "longitude": -46.7333
        },
        {
            "nome": "Garruchao Auto Posto",
            "endereco": "Avenida Professor Queiroz Filho, 1310 - Vila Leopoldino, São Paulo - SP, Brasil",
            "gasolina_comum": 0,
            "gasolina_aditivada": 0,
            "ethanol_comum": 0,
            "ethanol_aditivado": 0,
            "diesel_aditivado": 0,
            "latitude": -23.525899887085,
            "longitude": -46.89049911499
        },
        {
            "nome": "Posto Petrobras",
            "endereco": "R. Inácio Pereira da Rocha, 50 - Vila Madalena, São Paulo - SP, Brasil",
            "gasolina_comum": 0,
            "gasolina_aditivada": 0,
            "ethanol_comum": 0,
            "ethanol_aditivado": 0,
            "diesel_aditivado": 0,
            "latitude": -23.5587,
            "longitude": -46.6877
        },
        {
            "nome": "Auto Posto Ajg Ltda",
            "endereco": "Rua   Miguel Rodrigues, 28 - Vila Madalena, São Paulo - SP, Brasil",
            "gasolina_comum": 0,
            "gasolina_aditivada": 0,
            "ethanol_comum": 0,
            "ethanol_aditivado": 0,
            "diesel_aditivado": 0,
            "latitude": -23.549900054932,
            "longitude": -46.698299407959
        },
        {
            "nome": "Auto Posto Alvorada da Vila Ltda",
            "endereco": "Rua Alvilandia, 20 - Vila Madalena, São Paulo - SP, Brasil",
            "gasolina_comum": 0,
            "gasolina_aditivada": 0,
            "ethanol_comum": 0,
            "ethanol_aditivado": 0,
            "diesel_aditivado": 0,
            "latitude": -23.5456611,
            "longitude": -46.7034008
        },
        {
            "nome": "Alves D Abreu e Salgado - Combustiveis, Comércio e Estacionamento Ltda",
            "endereco": "Rua Fradique Coutinho, 698 - Vila Madalena, São Paulo - SP, Brasil",
            "gasolina_comum": 0,
            "gasolina_aditivada": 0,
            "ethanol_comum": 0,
            "ethanol_aditivado": 0,
            "diesel_aditivado": 0,
            "latitude": -23.560800552368,
            "longitude": -46.687999725342
        },
        {
            "nome": "Auto Posto Duque City Ltda",
            "endereco": "Rua Dona Elisa Moraes Mendes, 781 - Vila Madalena, São Paulo - SP, Brasil",
            "gasolina_comum": 0,
            "gasolina_aditivada": 0,
            "ethanol_comum": 0,
            "ethanol_aditivado": 0,
            "diesel_aditivado": 0,
            "latitude": -23.549900054932,
            "longitude": -46.706699371338
        },
        {
            "nome": "Auto Posto Eliane Ltda",
            "endereco": "Rua Fradique Coutinho, 1284 - Vila Madalena, São Paulo - SP, Brasil",
            "gasolina_comum": 0,
            "gasolina_aditivada": 0,
            "ethanol_comum": 0,
            "ethanol_aditivado": 0,
            "diesel_aditivado": 0,
            "latitude": -23.556299209595,
            "longitude": -46.691299438477
        },
        {
            "nome": "Auto Posto A. S. Ltda",
            "endereco": "Rua Alberto Seabra, 421 - Vila Madalena, São Paulo - SP, Brasil",
            "gasolina_comum": 0,
            "gasolina_aditivada": 0,
            "ethanol_comum": 0,
            "ethanol_aditivado": 0,
            "diesel_aditivado": 0,
            "latitude": -23.547300338745,
            "longitude": -46.708599090576
        },
        {
            "nome": "Auto Posto Chegada",
            "endereco": "Rua Nazare Paulista, 210 - Vila Madalena, São Paulo - SP, Brasil",
            "gasolina_comum": 0,
            "gasolina_aditivada": 0,
            "ethanol_comum": 0,
            "ethanol_aditivado": 0,
            "diesel_aditivado": 0,
            "latitude": -23.545700073242,
            "longitude": -46.700500488281
        },
        {
            "nome": "Auto Posto de Serviços Girassol Ltda",
            "endereco": "Rua Inacio Pereira da Rocha, 50 - Vila Madalena, São Paulo - SP, Brasil",
            "gasolina_comum": 0,
            "gasolina_aditivada": 0,
            "ethanol_comum": 0,
            "ethanol_aditivado": 0,
            "diesel_aditivado": 0,
            "latitude": -23.55890083313,
            "longitude": -46.687801361084
        },
        {
            "nome": "Ipiranga",
            "endereco": "Rua Alvilândia, 20 - Vila Madalena, São Paulo - SP, Brasil",
            "gasolina_comum": 0,
            "gasolina_aditivada": 0,
            "ethanol_comum": 0,
            "ethanol_aditivado": 0,
            "diesel_aditivado": 0,
            "latitude": -23.545700073242,
            "longitude": -46.703399658203
        },
        {
            "nome": "Auto Posto Delfim Ltda",
            "endereco": "Rua Manilha, 356 - Vila Manchester, São Paulo - SP, Brasil",
            "gasolina_comum": 0,
            "gasolina_aditivada": 0,
            "ethanol_comum": 0,
            "ethanol_aditivado": 0,
            "diesel_aditivado": 0,
            "latitude": -23.549800872803,
            "longitude": -46.527099609375
        },
        {
            "nome": "Mamami Serviços Automotivos Ltda",
            "endereco": "Estrada de Itapecerica, 1849 - Vila Maracanã, São Paulo - SP, Brasil",
            "gasolina_comum": 0,
            "gasolina_aditivada": 0,
            "ethanol_comum": 0,
            "ethanol_aditivado": 0,
            "diesel_aditivado": 0,
            "latitude": -23.648599624634,
            "longitude": -46.749801635742
        },
        {
            "nome": "Makro Atacadista Sociedade Anonima",
            "endereco": "Rua Carmine Gaeta, 184 - Vila Maria, São Paulo - SP, Brasil",
            "gasolina_comum": 0,
            "gasolina_aditivada": 0,
            "ethanol_comum": 0,
            "ethanol_aditivado": 0,
            "diesel_aditivado": 0,
            "latitude": -23.521499633789,
            "longitude": -46.602001190186
        },
        {
            "nome": "Novo Pantera Auto Posto Ltda",
            "endereco": "Avenida Conceicao, 4930 - Vila Maria, São Paulo - SP, Brasil",
            "gasolina_comum": 0,
            "gasolina_aditivada": 0,
            "ethanol_comum": 0,
            "ethanol_aditivado": 0,
            "diesel_aditivado": 0,
            "latitude": -23.500099182129,
            "longitude": -46.572200775146
        },
        {
            "nome": "Posto de Servico Confianca Ltda",
            "endereco": "Avenida Morvam D de Figueiredo, 7035 - Vila Maria, São Paulo - SP, Brasil",
            "gasolina_comum": 0,
            "gasolina_aditivada": 0,
            "ethanol_comum": 0,
            "ethanol_aditivado": 0,
            "diesel_aditivado": 0,
            "latitude": -23.523399353027,
            "longitude": -46.56600189209
        },
        {
            "nome": "Auto Posto V12 Ltda",
            "endereco": "Avenida Guilherme Cotching, 458 - Vila Maria, São Paulo - SP, Brasil",
            "gasolina_comum": 0,
            "gasolina_aditivada": 0,
            "ethanol_comum": 0,
            "ethanol_aditivado": 0,
            "diesel_aditivado": 0,
            "latitude": -23.524599075317,
            "longitude": -46.594501495361
        },
        {
            "nome": "Virgilio Fernando Cancela",
            "endereco": "Rua Curuca, 532 - Vila Maria, São Paulo - SP, Brasil",
            "gasolina_comum": 0,
            "gasolina_aditivada": 0,
            "ethanol_comum": 0,
            "ethanol_aditivado": 0,
            "diesel_aditivado": 0,
            "latitude": -23.512800216675,
            "longitude": -46.590698242188
        },
        {
            "nome": "Fortsul Posto de Servicos e Conveniencias Ltda",
            "endereco": "Avenida Morvan Dias de Figueiredo, 5479 C - Vila Maria, São Paulo - SP, Brasil",
            "gasolina_comum": 0,
            "gasolina_aditivada": 0,
            "ethanol_comum": 0,
            "ethanol_aditivado": 0,
            "diesel_aditivado": 0,
            "latitude": -23.526300430298,
            "longitude": -46.581600189209
        },
        {
            "nome": "Posto de Servicos Automotivos e Comercio de Combustiveis Touriga Ltda",
            "endereco": "Avenida Morvan Dias de Figueiredo, 5265 - Vila Maria, São Paulo - SP, Brasil",
            "gasolina_comum": 0,
            "gasolina_aditivada": 0,
            "ethanol_comum": 0,
            "ethanol_aditivado": 0,
            "diesel_aditivado": 0,
            "latitude": -23.527000427246,
            "longitude": -46.582901000977
        },
        {
            "nome": "Auto Posto o Portal da Vila Ltda",
            "endereco": "Avenida Guilherme Cotching, 2003 - Vila Maria, São Paulo - SP, Brasil",
            "gasolina_comum": 0,
            "gasolina_aditivada": 0,
            "ethanol_comum": 0,
            "ethanol_aditivado": 0,
            "diesel_aditivado": 0,
            "latitude": -23.5126259,
            "longitude": -46.5855235
        },
        {
            "nome": "Fortsul Posto de Serviços e Conveniências Ltda",
            "endereco": "Avenida   Morvan Dias de Figueiredo, 5479 - Vila Maria, São Paulo - SP, Brasil",
            "gasolina_comum": 0,
            "gasolina_aditivada": 0,
            "ethanol_comum": 0,
            "ethanol_aditivado": 0,
            "diesel_aditivado": 0,
            "latitude": -23.51969909668,
            "longitude": -46.556301116943
        },
        {
            "nome": "Posto Sul America Ltda",
            "endereco": "Avenida Guilherme Cotching, 1497 - Vila Maria, São Paulo - SP, Brasil",
            "gasolina_comum": 0,
            "gasolina_aditivada": 0,
            "ethanol_comum": 0,
            "ethanol_aditivado": 0,
            "diesel_aditivado": 0,
            "latitude": -23.516300201416,
            "longitude": -46.588199615479
        },
        {
            "nome": "Auto Posto Leao de Vila Maria Ltda",
            "endereco": "Rua Curuça, 1077 - Vila Maria, São Paulo - SP, Brasil",
            "gasolina_comum": 0,
            "gasolina_aditivada": 0,
            "ethanol_comum": 0,
            "ethanol_aditivado": 0,
            "diesel_aditivado": 0,
            "latitude": -23.515600204468,
            "longitude": -46.586200714111
        },
        {
            "nome": "Auto Posto Nascimento",
            "endereco": "Avenida Guilherme Cotching, 458 - Vila Maria, São Paulo - SP, Brasil",
            "gasolina_comum": 0,
            "gasolina_aditivada": 0,
            "ethanol_comum": 0,
            "ethanol_aditivado": 0,
            "diesel_aditivado": 0,
            "latitude": -23.524000167847,
            "longitude": -46.59400177002
        },
        {
            "nome": "Auto Posto Nova Conceição",
            "endereco": "Avenida Conceição, 4270 - Vila Maria, São Paulo - SP, Brasil",
            "gasolina_comum": 0,
            "gasolina_aditivada": 0,
            "ethanol_comum": 0,
            "ethanol_aditivado": 0,
            "diesel_aditivado": 0,
            "latitude": -23.4961,
            "longitude": -46.5767
        },
        {
            "nome": "Auto Posto Vila Maria Ltda",
            "endereco": "Avenida Alberto Byington, 1769 - Vila Maria, São Paulo - SP, Brasil",
            "gasolina_comum": 0,
            "gasolina_aditivada": 0,
            "ethanol_comum": 0,
            "ethanol_aditivado": 0,
            "diesel_aditivado": 0,
            "latitude": -23.500600814819,
            "longitude": -46.589099884033
        },
        {
            "nome": "Posto Boxter",
            "endereco": "R. Dr. Vidal Réis, 41 - Vila Maria, São Paulo - SP, Brasil",
            "gasolina_comum": 0,
            "gasolina_aditivada": 0,
            "ethanol_comum": 0,
            "ethanol_aditivado": 0,
            "diesel_aditivado": 0,
            "latitude": -23.5229,
            "longitude": -46.5654
        },
        {
            "nome": "Posto Cerejeiras",
            "endereco": "Avenida das Cerejeiras, 1156 - Vila Maria, São Paulo - SP, Brasil",
            "gasolina_comum": 0,
            "gasolina_aditivada": 0,
            "ethanol_comum": 0,
            "ethanol_aditivado": 0,
            "diesel_aditivado": 0,
            "latitude": -23.506900787354,
            "longitude": -46.577701568604
        },
        {
            "nome": "Tanaja",
            "endereco": "Praca Cosmorama, 14 - Vila Maria, São Paulo - SP, Brasil",
            "gasolina_comum": 0,
            "gasolina_aditivada": 0,
            "ethanol_comum": 0,
            "ethanol_aditivado": 0,
            "diesel_aditivado": 0,
            "latitude": -23.506500244141,
            "longitude": -46.589298248291
        },
        {
            "nome": "Posto Boxter",
            "endereco": "Av. Morvan Dias de Figueiredo, 1709 - Vila Maria, São Paulo - SP, Brasil",
            "gasolina_comum": 0,
            "gasolina_aditivada": 0,
            "ethanol_comum": 0,
            "ethanol_aditivado": 0,
            "diesel_aditivado": 0,
            "latitude": -23.5229,
            "longitude": -46.5654
        },
        {
            "nome": "Centro Automotivo Cosmorama Ltda",
            "endereco": "Praça Cosmorama, 91 - Vila Maria Alta, São Paulo - SP, Brasil",
            "gasolina_comum": 0,
            "gasolina_aditivada": 0,
            "ethanol_comum": 0,
            "ethanol_aditivado": 0,
            "diesel_aditivado": 0,
            "latitude": -23.506500244141,
            "longitude": -46.589298248291
        },
        {
            "nome": "Auto Posto Belo Ii Ltda",
            "endereco": "Avenida Guilherme Cotching, 464 - Vila Maria Baixa, São Paulo - SP, Brasil",
            "gasolina_comum": 0,
            "gasolina_aditivada": 0,
            "ethanol_comum": 0,
            "ethanol_aditivado": 0,
            "diesel_aditivado": 0,
            "latitude": -23.524000167847,
            "longitude": -46.59400177002
        },
        {
            "nome": "Nikigas Comercial Ltda",
            "endereco": "Avenida Guilherme Cotching, 840 - Vila Maria Baixa, São Paulo - SP, Brasil",
            "gasolina_comum": 0,
            "gasolina_aditivada": 0,
            "ethanol_comum": 0,
            "ethanol_aditivado": 0,
            "diesel_aditivado": 0,
            "latitude": -23.521200180054,
            "longitude": -46.591800689697
        },
        {
            "nome": "Auto Posto Mc de Pirituba Ltda",
            "endereco": "Rua Coronel José Rufino Freire, 515 - Vila Maria Eugênia, São Paulo - SP, Brasil",
            "gasolina_comum": 0,
            "gasolina_aditivada": 0,
            "ethanol_comum": 0,
            "ethanol_aditivado": 0,
            "diesel_aditivado": 0,
            "latitude": -23.490600585938,
            "longitude": -46.752601623535
        },
        {
            "nome": "Auto Posto Emv Eireli",
            "endereco": "Rua Coronel  Jose Rufino Freire, 371 - Vila Maria Eugênia, São Paulo - SP, Brasil",
            "gasolina_comum": 0,
            "gasolina_aditivada": 0,
            "ethanol_comum": 0,
            "ethanol_aditivado": 0,
            "diesel_aditivado": 0,
            "latitude": -23.4902948,
            "longitude": -46.7542277
        },
        {
            "nome": "Ka - Gnv",
            "endereco": "Rua Coronel José Rufino Freire, 515 - Vila Maria Eugênia, São Paulo - SP, Brasil",
            "gasolina_comum": 0,
            "gasolina_aditivada": 0,
            "ethanol_comum": 0,
            "ethanol_aditivado": 0,
            "diesel_aditivado": 0,
            "latitude": -23.490600585938,
            "longitude": -46.752601623535
        },
        {
            "nome": "Auto Posto Spyke One Ltda",
            "endereco": "Rua Vergueiro, 4999 - Vila Mariana, São Paulo - SP, Brasil",
            "gasolina_comum": 0,
            "gasolina_aditivada": 0,
            "ethanol_comum": 0,
            "ethanol_aditivado": 0,
            "diesel_aditivado": 0,
            "latitude": -23.592699050903,
            "longitude": -46.620998382568
        },
        {
            "nome": "Auto Posto Obelisco Ltda",
            "endereco": "Avenida Vinte e Três de Maio, 3115 - Vila Mariana, São Paulo - SP, Brasil",
            "gasolina_comum": 0,
            "gasolina_aditivada": 0,
            "ethanol_comum": 0,
            "ethanol_aditivado": 0,
            "diesel_aditivado": 0,
            "latitude": -23.579999923706,
            "longitude": -46.648101806641
        },
        {
            "nome": "Centro Automotivo Top 23 Ltda",
            "endereco": "Avenida Vinte e Tres de Maio, 3183 3201 - Vila Mariana, São Paulo - SP, Brasil",
            "gasolina_comum": 0,
            "gasolina_aditivada": 0,
            "ethanol_comum": 0,
            "ethanol_aditivado": 0,
            "diesel_aditivado": 0,
            "latitude": -23.580499649048,
            "longitude": -46.64879989624
        },
        {
            "nome": "Auto Posto Ripdois Ltda - Epp",
            "endereco": "Rua Dr Diogo de Faria, 887 - Vila Mariana, São Paulo - SP, Brasil",
            "gasolina_comum": 0,
            "gasolina_aditivada": 0,
            "ethanol_comum": 0,
            "ethanol_aditivado": 0,
            "diesel_aditivado": 0,
            "latitude": -23.595600128174,
            "longitude": -46.645401000977
        },
        {
            "nome": "Tutoia Comercio Varejista de Combustiveis Ltda  - Me",
            "endereco": "Rua Tutoia, 780 - Vila Mariana, São Paulo - SP, Brasil",
            "gasolina_comum": 0,
            "gasolina_aditivada": 0,
            "ethanol_comum": 0,
            "ethanol_aditivado": 0,
            "diesel_aditivado": 0,
            "latitude": -23.577699661255,
            "longitude": -46.651000976562
        },
        {
            "nome": "Formula Automotivo Ltda",
            "endereco": "Rua Dr. Amancio de Carvalho, 165 - Vila Mariana, São Paulo - SP, Brasil",
            "gasolina_comum": 0,
            "gasolina_aditivada": 0,
            "ethanol_comum": 0,
            "ethanol_aditivado": 0,
            "diesel_aditivado": 0,
            "latitude": -23.58270072937,
            "longitude": "-46.648998260498,camisa Dez Auto Posto Ltda"
        },
        {
            "nome": "Posto Santa Paula Ltda",
            "endereco": "Rua Domingos de Morais, 1555 - Vila Mariana, São Paulo - SP, Brasil",
            "gasolina_comum": 0,
            "gasolina_aditivada": 0,
            "ethanol_comum": 0,
            "ethanol_aditivado": 0,
            "diesel_aditivado": 0,
            "latitude": -23.589700698853,
            "longitude": -46.635101318359
        },
        {
            "nome": "Auto Posto Rodrigues de Freitas Ltda",
            "endereco": "Rua Santa Cruz, 467 - Vila Mariana, São Paulo - SP, Brasil",
            "gasolina_comum": 0,
            "gasolina_aditivada": 0,
            "ethanol_comum": 0,
            "ethanol_aditivado": 0,
            "diesel_aditivado": 0,
            "latitude": -23.596799850464,
            "longitude": -46.631801605225
        },
        {
            "nome": "Nias - Comercio Varejista de Combustiveis Ltda",
            "endereco": "Rua Domingos de Moraes, 2156 - Vila Mariana, São Paulo - SP, Brasil",
            "gasolina_comum": 0,
            "gasolina_aditivada": 0,
            "ethanol_comum": 0,
            "ethanol_aditivado": 0,
            "diesel_aditivado": 0,
            "latitude": -23.594800949097,
            "longitude": -46.636699676514
        },
        {
            "nome": "Posto de Servicos Mariana Ltda",
            "endereco": "Avenida Lins de Vasconcelos, 3267 - Vila Mariana, São Paulo - SP, Brasil",
            "gasolina_comum": 0,
            "gasolina_aditivada": 0,
            "ethanol_comum": 0,
            "ethanol_aditivado": 0,
            "diesel_aditivado": 0,
            "latitude": -23.58869934082,
            "longitude": -46.632301330566
        },
        {
            "nome": "Auto Posto Arqui Fuel Ltda",
            "endereco": "Rua Afonso Celso, 1127 - Vila Mariana, São Paulo - SP, Brasil",
            "gasolina_comum": 0,
            "gasolina_aditivada": 0,
            "ethanol_comum": 0,
            "ethanol_aditivado": 0,
            "diesel_aditivado": 0,
            "latitude": -23.601499557495,
            "longitude": -46.634899139404
        },
        {
            "nome": "Auto Posto Center Paraiso Ltda",
            "endereco": "Rua Dr Rafael de Barros, 137 - Vila Mariana, São Paulo - SP, Brasil",
            "gasolina_comum": 0,
            "gasolina_aditivada": 0,
            "ethanol_comum": 0,
            "ethanol_aditivado": 0,
            "diesel_aditivado": 0,
            "latitude": -23.572299957275,
            "longitude": -46.645599365234
        },
        {
            "nome": "Auto Posto Chabin Ltda",
            "endereco": "Rua Santa Cruz, 965 - Vila Mariana, São Paulo - SP, Brasil",
            "gasolina_comum": 0,
            "gasolina_aditivada": 0,
            "ethanol_comum": 0,
            "ethanol_aditivado": 0,
            "diesel_aditivado": 0,
            "latitude": -23.5974181,
            "longitude": -46.6273724
        },
        {
            "nome": "Posto de Serviços Quadrante Ltda",
            "endereco": "Rua Guiratinga, 156 - Vila Mariana, São Paulo - SP, Brasil",
            "gasolina_comum": 0,
            "gasolina_aditivada": 0,
            "ethanol_comum": 0,
            "ethanol_aditivado": 0,
            "diesel_aditivado": 0,
            "latitude": -23.604400634766,
            "longitude": -46.628700256348
        },
        {
            "nome": "Auto Posto Metrô Vila Mariana Ltda",
            "endereco": "Avenida Professor  Noé Azevedo, 1.555 - Vila Mariana, São Paulo - SP, Brasil",
            "gasolina_comum": 0,
            "gasolina_aditivada": 0,
            "ethanol_comum": 0,
            "ethanol_aditivado": 0,
            "diesel_aditivado": 0,
            "latitude": -23.588600158691,
            "longitude": -46.634498596191
        },
        {
            "nome": "Auto Posto Agulhas Negras Ltda",
            "endereco": "Avenida Vinte e Três de Maio, 3115 - Vila Mariana, São Paulo - SP, Brasil",
            "gasolina_comum": 0,
            "gasolina_aditivada": 0,
            "ethanol_comum": 0,
            "ethanol_aditivado": 0,
            "diesel_aditivado": 0,
            "latitude": -23.583000183105,
            "longitude": -46.652099609375
        },
        {
            "nome": "Posto de Serviços Rovigo Ltda",
            "endereco": "Rua Tutoia, 372 - Vila Mariana, São Paulo - SP, Brasil",
            "gasolina_comum": 0,
            "gasolina_aditivada": 0,
            "ethanol_comum": 0,
            "ethanol_aditivado": 0,
            "diesel_aditivado": 0,
            "latitude": -23.573999404907,
            "longitude": -46.650699615479
        },
        {
            "nome": "Auto Posto Mar Azul Ltda",
            "endereco": "Rua Domingos de Moraes, 2156 - Vila Mariana, São Paulo - SP, Brasil",
            "gasolina_comum": 0,
            "gasolina_aditivada": 0,
            "ethanol_comum": 0,
            "ethanol_aditivado": 0,
            "diesel_aditivado": 0,
            "latitude": -23.594800949097,
            "longitude": -46.636699676514
        },
        {
            "nome": "Auto Posto Klabin Vila Mariana L",
            "endereco": "Avenida Lins de Vasconcelos, 3241 - Vila Mariana, São Paulo - SP, Brasil",
            "gasolina_comum": 0,
            "gasolina_aditivada": 0,
            "ethanol_comum": 0,
            "ethanol_aditivado": 0,
            "diesel_aditivado": 0,
            "latitude": -23.588800430298,
            "longitude": -46.632301330566
        },
        {
            "nome": "Auto Posto Malibu Ltda",
            "endereco": "Rua Vergueiro, 2909 - Vila Mariana, São Paulo - SP, Brasil",
            "gasolina_comum": 0,
            "gasolina_aditivada": 0,
            "ethanol_comum": 0,
            "ethanol_aditivado": 0,
            "diesel_aditivado": 0,
            "latitude": -23.586500167847,
            "longitude": -46.634700775146
        },
        {
            "nome": "Auto Posto Monterey Ltda",
            "endereco": "Rua Carlos Petit, 36 - Vila Mariana, São Paulo - SP, Brasil",
            "gasolina_comum": 0,
            "gasolina_aditivada": 0,
            "ethanol_comum": 0,
            "ethanol_aditivado": 0,
            "diesel_aditivado": 0,
            "latitude": -23.584899902344,
            "longitude": -46.636699676514
        },
        {
            "nome": "Catatau Auto Posto Ltda",
            "endereco": "Rua Guimaraes Passos, 36 - Vila Mariana, São Paulo - SP, Brasil",
            "gasolina_comum": 0,
            "gasolina_aditivada": 0,
            "ethanol_comum": 0,
            "ethanol_aditivado": 0,
            "diesel_aditivado": 0,
            "latitude": -23.577499389648,
            "longitude": -46.634601593018
        },
        {
            "nome": "Mario Vicente",
            "endereco": "Avenida Vergueiro, 4999 - Vila Mariana, São Paulo - SP, Brasil",
            "gasolina_comum": 0,
            "gasolina_aditivada": 0,
            "ethanol_comum": 0,
            "ethanol_aditivado": 0,
            "diesel_aditivado": 0,
            "latitude": -23.592699050903,
            "longitude": -46.620998382568
        },
        {
            "nome": "Posto de Serviço Camacho Ltda",
            "endereco": "Rua Santa Cruz, 1772 - Vila Mariana, São Paulo - SP, Brasil",
            "gasolina_comum": 0,
            "gasolina_aditivada": 0,
            "ethanol_comum": 0,
            "ethanol_aditivado": 0,
            "diesel_aditivado": 0,
            "latitude": -23.6015,
            "longitude": -46.6216
        },
        {
            "nome": "Posto Jardim Paulista",
            "endereco": "Rua Tutoia, 238 - Vila Mariana, São Paulo - SP, Brasil",
            "gasolina_comum": 0,
            "gasolina_aditivada": 0,
            "ethanol_comum": 0,
            "ethanol_aditivado": 0,
            "diesel_aditivado": 0,
            "latitude": -23.573400497437,
            "longitude": -46.651798248291
        },
        {
            "nome": "Posto Leandro Dupret",
            "endereco": "Rua Leandro Dupre, 1106 - Vila Mariana, São Paulo - SP, Brasil",
            "gasolina_comum": 0,
            "gasolina_aditivada": 0,
            "ethanol_comum": 0,
            "ethanol_aditivado": 0,
            "diesel_aditivado": 0,
            "latitude": -23.604200363159,
            "longitude": -46.64709854126
        },
        {
            "nome": "Posto Ricardo Jafet - Pão de Açúcar",
            "endereco": "Rua Prof.Serafim Orlandi, 299 - Vila Mariana, São Paulo - SP, Brasil",
            "gasolina_comum": 0,
            "gasolina_aditivada": 0,
            "ethanol_comum": 0,
            "ethanol_aditivado": 0,
            "diesel_aditivado": 0,
            "latitude": -23.588300704956,
            "longitude": -46.620300292969
        },
        {
            "nome": "Rede Campeao",
            "endereco": "Rua Borges Lagoa, 1368 - Vila Mariana, São Paulo - SP, Brasil",
            "gasolina_comum": 0,
            "gasolina_aditivada": 0,
            "ethanol_comum": 0,
            "ethanol_aditivado": 0,
            "diesel_aditivado": 0,
            "latitude": -23.596399307251,
            "longitude": -46.649898529053
        },
        {
            "nome": "Vila Mariana",
            "endereco": "Rua Vergueiro, - Vila Mariana, São Paulo - SP, Brasil",
            "gasolina_comum": 0,
            "gasolina_aditivada": 0,
            "ethanol_comum": 0,
            "ethanol_aditivado": 0,
            "diesel_aditivado": 0,
            "latitude": -23.581100463867,
            "longitude": -46.638401031494
        },
        {
            "nome": "Posto Petrobras",
            "endereco": "Rua Dr. Luiz Falgetano Sobrinho, 3 - Vila Mariana, São Paulo - SP, Brasil",
            "gasolina_comum": 0,
            "gasolina_aditivada": 0,
            "ethanol_comum": 0,
            "ethanol_aditivado": 0,
            "diesel_aditivado": 0,
            "latitude": -23.5816,
            "longitude": -46.6495
        },
        {
            "nome": "Auto Posto Portal da Penha",
            "endereco": "Avenida São Miguel, 955 - Vila Marieta, São Paulo - SP, Brasil",
            "gasolina_comum": 0,
            "gasolina_aditivada": 0,
            "ethanol_comum": 0,
            "ethanol_aditivado": 0,
            "diesel_aditivado": 0,
            "latitude": -23.515399932861,
            "longitude": -46.520500183105
        },
        {
            "nome": "Posto Damasceno Vieira Ltda",
            "endereco": "Avenida   Damasceno Vieira, 569 - Vila Mascote, São Paulo - SP, Brasil",
            "gasolina_comum": 0,
            "gasolina_aditivada": 0,
            "ethanol_comum": 0,
            "ethanol_aditivado": 0,
            "diesel_aditivado": 0,
            "latitude": -23.645599365234,
            "longitude": -46.663600921631
        },
        {
            "nome": "Posto de Serviços Cardoso Ltda",
            "endereco": "Rua Jose Mascarenhas, 577 - Vila Matilde, São Paulo - SP, Brasil",
            "gasolina_comum": 0,
            "gasolina_aditivada": 0,
            "ethanol_comum": 0,
            "ethanol_aditivado": 0,
            "diesel_aditivado": 0,
            "latitude": -23.538799285889,
            "longitude": -46.531600952148
        },
        {
            "nome": "Posto de Serviços Elyon Ltda",
            "endereco": "Rua Joaquim Marra, 458 - Vila Matilde, São Paulo - SP, Brasil",
            "gasolina_comum": 0,
            "gasolina_aditivada": 0,
            "ethanol_comum": 0,
            "ethanol_aditivado": 0,
            "diesel_aditivado": 0,
            "latitude": -23.532199859619,
            "longitude": -46.524501800537
        },
        {
            "nome": "Gamelinha Servicos Automotivos Ltda",
            "endereco": "Avenida Professor Edgard Santos, 2435 - Vila Matilde, São Paulo - SP, Brasil",
            "gasolina_comum": 0,
            "gasolina_aditivada": 0,
            "ethanol_comum": 0,
            "ethanol_aditivado": 0,
            "diesel_aditivado": 0,
            "latitude": -23.553499221802,
            "longitude": -46.49169921875
        },
        {
            "nome": "Auto Posto City Aricanduva Ltda",
            "endereco": "Rua  Sebastiao de Andrade, 99 - Vila Matilde, São Paulo - SP, Brasil",
            "gasolina_comum": 0,
            "gasolina_aditivada": 0,
            "ethanol_comum": 0,
            "ethanol_aditivado": 0,
            "diesel_aditivado": 0,
            "latitude": -23.542999267578,
            "longitude": -46.53039932251
        },
        {
            "nome": "Posto de Serviços 577 Ltda",
            "endereco": "Rua   Jose Mascarenhas, 577 - Vila Matilde, São Paulo - SP, Brasil",
            "gasolina_comum": 0,
            "gasolina_aditivada": 0,
            "ethanol_comum": 0,
            "ethanol_aditivado": 0,
            "diesel_aditivado": 0,
            "latitude": -23.538799285889,
            "longitude": -46.531600952148
        },
        {
            "nome": "Auto Posto Expresso Brasil Ltda",
            "endereco": "Rua Olimpio Bras de Sousa, 180 - Vila Matilde, São Paulo - SP, Brasil",
            "gasolina_comum": 0,
            "gasolina_aditivada": 0,
            "ethanol_comum": 0,
            "ethanol_aditivado": 0,
            "diesel_aditivado": 0,
            "latitude": -23.544200897217,
            "longitude": -46.528900146484
        },
        {
            "nome": "Auto Posto Radial Ltda",
            "endereco": "Avenida Conde de Frontim, 2544 - Vila Matilde, São Paulo - SP, Brasil",
            "gasolina_comum": 0,
            "gasolina_aditivada": 0,
            "ethanol_comum": 0,
            "ethanol_aditivado": 0,
            "diesel_aditivado": 0,
            "latitude": -23.53210067749,
            "longitude": -46.533100128174
        },
        {
            "nome": "Maxxi",
            "endereco": "Rua Abadiania, 682 - Vila Matilde, São Paulo - SP, Brasil",
            "gasolina_comum": 0,
            "gasolina_aditivada": 0,
            "ethanol_comum": 0,
            "ethanol_aditivado": 0,
            "diesel_aditivado": 0,
            "latitude": -23.536500930786,
            "longitude": -46.517601013184
        },
        {
            "nome": "Rede Atlas",
            "endereco": "Rua Waldemar Carlos Pereira, 154 - Vila Matilde, São Paulo - SP, Brasil",
            "gasolina_comum": 0,
            "gasolina_aditivada": 0,
            "ethanol_comum": 0,
            "ethanol_aditivado": 0,
            "diesel_aditivado": 0,
            "latitude": -23.541799545288,
            "longitude": -46.523300170898
        },
        {
            "nome": "Auto Posto Palmas Ltda",
            "endereco": "Rua Manoel Gaya, 152 - Vila Mazzei, São Paulo - SP, Brasil",
            "gasolina_comum": 0,
            "gasolina_aditivada": 0,
            "ethanol_comum": 0,
            "ethanol_aditivado": 0,
            "diesel_aditivado": 0,
            "latitude": -23.467100143433,
            "longitude": -46.594799041748
        },
        {
            "nome": "Auto Posto Raio de Sol Ltda",
            "endereco": "Rua Manuel Gaya, 631 - Vila Mazzei, São Paulo - SP, Brasil",
            "gasolina_comum": 0,
            "gasolina_aditivada": 0,
            "ethanol_comum": 0,
            "ethanol_aditivado": 0,
            "diesel_aditivado": 0,
            "latitude": -23.465099334717,
            "longitude": -46.598999023438
        },
        {
            "nome": "Posto de Serviço Vila Mazzei Ltda",
            "endereco": "Avenida Mazzei, 1670 - Vila Mazzei, São Paulo - SP, Brasil",
            "gasolina_comum": 0,
            "gasolina_aditivada": 0,
            "ethanol_comum": 0,
            "ethanol_aditivado": 0,
            "diesel_aditivado": 0,
            "latitude": -23.467699050903,
            "longitude": -46.597400665283
        },
        {
            "nome": "Posto Palmas",
            "endereco": "Rua Manoel Gaya, - - - Vila Mazzei, São Paulo - SP, Brasil",
            "gasolina_comum": 0,
            "gasolina_aditivada": 0,
            "ethanol_comum": 0,
            "ethanol_aditivado": 0,
            "diesel_aditivado": 0,
            "latitude": -23.46369934082,
            "longitude": -46.600799560547
        },
        {
            "nome": "Auto Posto Monet Ltda",
            "endereco": "Rua Maria Fette, 161 - Vila Mercedes, São Paulo - SP, Brasil",
            "gasolina_comum": 0,
            "gasolina_aditivada": 0,
            "ethanol_comum": 0,
            "ethanol_aditivado": 0,
            "diesel_aditivado": 0,
            "latitude": -23.550500869751,
            "longitude": -46.63330078125
        },
        {
            "nome": "Auto Posto Engenheiro Goulart Ltda",
            "endereco": "Avenida Assis Ribeiro, 190 - Vila Mesquita, São Paulo - SP, Brasil",
            "gasolina_comum": 0,
            "gasolina_aditivada": 0,
            "ethanol_comum": 0,
            "ethanol_aditivado": 0,
            "diesel_aditivado": 0,
            "latitude": -23.509199142456,
            "longitude": -46.549198150635
        },
        {
            "nome": "Nova Mirante",
            "endereco": "Avenida Miguel de Castro, 1869 - Vila Mirante, São Paulo - SP, Brasil",
            "gasolina_comum": 0,
            "gasolina_aditivada": 0,
            "ethanol_comum": 0,
            "ethanol_aditivado": 0,
            "diesel_aditivado": 0,
            "latitude": -23.4703,
            "longitude": -46.7218
        },
        {
            "nome": "Fuad Lutfalla",
            "endereco": "Rua Antonio Gomes de Oliveira, 369 - Vila Mirian, São Paulo - SP, Brasil",
            "gasolina_comum": 0,
            "gasolina_aditivada": 0,
            "ethanol_comum": 0,
            "ethanol_aditivado": 0,
            "diesel_aditivado": 0,
            "latitude": -23.484199523926,
            "longitude": -46.708599090576
        },
        {
            "nome": "Triplo X Auto Posto Ltda",
            "endereco": "Avenida Presidentetancredo Neves, 85 Térreo - Vila Moinho Velho, São Paulo - SP, Brasil",
            "gasolina_comum": 0,
            "gasolina_aditivada": 0,
            "ethanol_comum": 0,
            "ethanol_aditivado": 0,
            "diesel_aditivado": 0,
            "latitude": -23.543199539185,
            "longitude": -46.629199981689
        },
        {
            "nome": "Auto Posto Ferracini e Souza Ltda",
            "endereco": "Via Anchieta, 1954 - Vila Moinho Velho, São Paulo - SP, Brasil",
            "gasolina_comum": 0,
            "gasolina_aditivada": 0,
            "ethanol_comum": 0,
            "ethanol_aditivado": 0,
            "diesel_aditivado": 0,
            "latitude": -23.623899459839,
            "longitude": -46.599899291992
        },
        {
            "nome": "Auto Posto Principe Iii Ltda",
            "endereco": "Avenida Fagundes Filho, 798 - Vila Monte Alegre, São Paulo - SP, Brasil",
            "gasolina_comum": 0,
            "gasolina_aditivada": 0,
            "ethanol_comum": 0,
            "ethanol_aditivado": 0,
            "diesel_aditivado": 0,
            "latitude": -23.626800537109,
            "longitude": -46.63399887085
        },
        {
            "nome": "Hirota Auto Posto & Serviços Ltda",
            "endereco": "Rua Gaspar Fernandes, 416 - Vila Monumento, São Paulo - SP, Brasil",
            "gasolina_comum": 0,
            "gasolina_aditivada": 0,
            "ethanol_comum": 0,
            "ethanol_aditivado": 0,
            "diesel_aditivado": 0,
            "latitude": -23.575399398804,
            "longitude": -46.616199493408
        },
        {
            "nome": "Auto Posto Mcx Ipiranga Ltda",
            "endereco": "Rua   Paulo Bregaro, 19 - Vila Monumento, São Paulo - SP, Brasil",
            "gasolina_comum": 0,
            "gasolina_aditivada": 0,
            "ethanol_comum": 0,
            "ethanol_aditivado": 0,
            "diesel_aditivado": 0,
            "latitude": -23.582099914551,
            "longitude": -46.613800048828
        },
        {
            "nome": "Auto Posto Vila Monumento Ltda",
            "endereco": "Avenida Dompedro I, 297 - Vila Monumento, São Paulo - SP, Brasil",
            "gasolina_comum": 0,
            "gasolina_aditivada": 0,
            "ethanol_comum": 0,
            "ethanol_aditivado": 0,
            "diesel_aditivado": 0,
            "latitude": -23.567699432373,
            "longitude": -46.611000061035
        },
        {
            "nome": "Auto Posto Scan - Leste I Ltda",
            "endereco": "Rua Leandro de Carvalho, 37 - Vila Monumento, São Paulo - SP, Brasil",
            "gasolina_comum": 0,
            "gasolina_aditivada": 0,
            "ethanol_comum": 0,
            "ethanol_aditivado": 0,
            "diesel_aditivado": 0,
            "latitude": -23.5684,
            "longitude": -46.6117
        },
        {
            "nome": "Posto Nossa Senhora do Aviso Ltda",
            "endereco": "Avenida do Cursino, 3691 - Vila Moraes, São Paulo - SP, Brasil",
            "gasolina_comum": 0,
            "gasolina_aditivada": 0,
            "ethanol_comum": 0,
            "ethanol_aditivado": 0,
            "diesel_aditivado": 0,
            "latitude": -23.633699417114,
            "longitude": -46.616199493408
        },
        {
            "nome": "Depetrol Derivados de Petroleo Ltda",
            "endereco": "Rua Doutor Nestor Alberto de Macedo, 22 - Vila Moraes, São Paulo - SP, Brasil",
            "gasolina_comum": 0,
            "gasolina_aditivada": 0,
            "ethanol_comum": 0,
            "ethanol_aditivado": 0,
            "diesel_aditivado": 0,
            "latitude": -23.625799179077,
            "longitude": -46.620601654053
        },
        {
            "nome": "Centro Automotivo Complexo 2001 Ltda",
            "endereco": "Avenida Presidente Tancredo Neves, 1600 - Vila Nancy, São Paulo - SP, Brasil",
            "gasolina_comum": 0,
            "gasolina_aditivada": 0,
            "ethanol_comum": 0,
            "ethanol_aditivado": 0,
            "diesel_aditivado": 0,
            "latitude": -23.615999221802,
            "longitude": -46.609298706055
        },
        {
            "nome": "Auto Posto Gigante Tancredo Ltda",
            "endereco": "Avenida Presidente Tancredo Neves, 1600 - Vila Nancy, São Paulo - SP, Brasil",
            "gasolina_comum": 0,
            "gasolina_aditivada": 0,
            "ethanol_comum": 0,
            "ethanol_aditivado": 0,
            "diesel_aditivado": 0,
            "latitude": -23.616100311279,
            "longitude": -46.609298706055
        },
        {
            "nome": "Centro Automotivo Porto Principe Ltda",
            "endereco": "Avenida Presidente Tancredo Neves, 126 142 - Vila Nancy, São Paulo - SP, Brasil",
            "gasolina_comum": 0,
            "gasolina_aditivada": 0,
            "ethanol_comum": 0,
            "ethanol_aditivado": 0,
            "diesel_aditivado": 0,
            "latitude": -23.6053864,
            "longitude": -46.6047799
        },
        {
            "nome": "Auto Posto Jardim Santa Fe Ltda",
            "endereco": "Rua   Maca Natal, 96 - Vila Natal, São Paulo - SP, Brasil",
            "gasolina_comum": 0,
            "gasolina_aditivada": 0,
            "ethanol_comum": 0,
            "ethanol_aditivado": 0,
            "diesel_aditivado": 0,
            "latitude": -23.761400222778,
            "longitude": -46.704498291016
        },
        {
            "nome": "Auto Posto Vila Natal Ltda",
            "endereco": "Rua   Maca Natal, 96 - Vila Natal, São Paulo - SP, Brasil",
            "gasolina_comum": 0,
            "gasolina_aditivada": 0,
            "ethanol_comum": 0,
            "ethanol_aditivado": 0,
            "diesel_aditivado": 0,
            "latitude": -23.762199401855,
            "longitude": -46.704898834229
        },
        {
            "nome": "Centro Automotivo Montecarlo Ltda - Me",
            "endereco": "Avenida Doutor Pereira Vergueiro, 287 - Vila Nhocune, São Paulo - SP, Brasil",
            "gasolina_comum": 0,
            "gasolina_aditivada": 0,
            "ethanol_comum": 0,
            "ethanol_aditivado": 0,
            "diesel_aditivado": 0,
            "latitude": -23.542618,
            "longitude": -46.4963538
        },
        {
            "nome": "Estação de Serviços Automotivos Amisterdã Ltda",
            "endereco": "Avenida Doutor Pereira Vergueiro, 537 - Vila Nhocune, São Paulo - SP, Brasil",
            "gasolina_comum": 0,
            "gasolina_aditivada": 0,
            "ethanol_comum": 0,
            "ethanol_aditivado": 0,
            "diesel_aditivado": 0,
            "latitude": -23.543199539185,
            "longitude": -46.49409866333
        },
        {
            "nome": "Estação de Serviços Automotivos Amisterda",
            "endereco": "Av. Dr. Pereira Vergueiro, 537 - Vila Nhocuné, São Paulo - SP, Brasil",
            "gasolina_comum": 0,
            "gasolina_aditivada": 0,
            "ethanol_comum": 0,
            "ethanol_aditivado": 0,
            "diesel_aditivado": 0,
            "latitude": -23.5431,
            "longitude": -46.494
        },
        {
            "nome": "Maranello - Comercio Varejista de Combustíveis Ltda",
            "endereco": "Rua Cirene de Oliveira Laet, 962 - Vila Nilo, São Paulo - SP, Brasil",
            "gasolina_comum": 0,
            "gasolina_aditivada": 0,
            "ethanol_comum": 0,
            "ethanol_aditivado": 0,
            "diesel_aditivado": 0,
            "latitude": -23.45890045166,
            "longitude": -46.571899414062
        },
        {
            "nome": "Posto de Serviços Guaimim Ltda",
            "endereco": "Rua   Manuel Ferreira Lopes, 19 - Vila Nossa Senhora Aparecida, São Paulo - SP, Brasil",
            "gasolina_comum": 0,
            "gasolina_aditivada": 0,
            "ethanol_comum": 0,
            "ethanol_aditivado": 0,
            "diesel_aditivado": 0,
            "latitude": -23.488199234009,
            "longitude": -46.69820022583
        },
        {
            "nome": "Jovicar Auto Posto",
            "endereco": "Av. Parada Pinto, 1233 - Vila Nova Cachoeirinha, São Paulo - SP, Brasil",
            "gasolina_comum": 0,
            "gasolina_aditivada": 0,
            "ethanol_comum": 0,
            "ethanol_aditivado": 0,
            "diesel_aditivado": 0,
            "latitude": -23.4695,
            "longitude": -46.6588
        },
        {
            "nome": "Auto Posto Vila Nova Cachoeirinha Ltda",
            "endereco": "Avenida Parada Pinto, 688 - Vila Nova Cachoeirinha, São Paulo - SP, Brasil",
            "gasolina_comum": 0,
            "gasolina_aditivada": 0,
            "ethanol_comum": 0,
            "ethanol_aditivado": 0,
            "diesel_aditivado": 0,
            "latitude": -23.468999862671,
            "longitude": -46.663600921631
        },
        {
            "nome": "Auto Posto Mms Ltda",
            "endereco": "Avenida General  Penha Brasil, 309 a - Vila Nova Cachoeirinha, São Paulo - SP, Brasil",
            "gasolina_comum": 0,
            "gasolina_aditivada": 0,
            "ethanol_comum": 0,
            "ethanol_aditivado": 0,
            "diesel_aditivado": 0,
            "latitude": -23.468299865723,
            "longitude": -46.667900085449
        },
        {
            "nome": "Auto Posto Amma Ltda",
            "endereco": "Avenida Parada Pinto, 2425 - Vila Nova Cachoeirinha, São Paulo - SP, Brasil",
            "gasolina_comum": 0,
            "gasolina_aditivada": 0,
            "ethanol_comum": 0,
            "ethanol_aditivado": 0,
            "diesel_aditivado": 0,
            "latitude": -23.46960067749,
            "longitude": -46.647800445557
        },
        {
            "nome": "Eli Auto Posto Ltda",
            "endereco": "Avenida Parada Pinto, 688 - Vila Nova Cachoeirinha, São Paulo - SP, Brasil",
            "gasolina_comum": 0,
            "gasolina_aditivada": 0,
            "ethanol_comum": 0,
            "ethanol_aditivado": 0,
            "diesel_aditivado": 0,
            "latitude": -23.468999862671,
            "longitude": -46.66370010376
        },
        {
            "nome": "Posto Petrobras",
            "endereco": "Av. Santo Amaro, 1543 - Vila Nova Conceição, São Paulo - SP, Brasil",
            "gasolina_comum": 0,
            "gasolina_aditivada": 0,
            "ethanol_comum": 0,
            "ethanol_aditivado": 0,
            "diesel_aditivado": 0,
            "latitude": -23.5977,
            "longitude": -46.6737
        },
        {
            "nome": "Auto Posto Duque Jk Ltda",
            "endereco": "Av. Presidente Juscelino Kubistcheck, 909 - Vila Nova Conceição, São Paulo - SP, Brasil",
            "gasolina_comum": 0,
            "gasolina_aditivada": 0,
            "ethanol_comum": 0,
            "ethanol_aditivado": 0,
            "diesel_aditivado": 0,
            "latitude": -23.589700698853,
            "longitude": -46.678100585938
        },
        {
            "nome": "Queens Auto Posto Ltda",
            "endereco": "Avenida Santo Amaro, 2250 - Vila Nova Conceição, São Paulo - SP, Brasil",
            "gasolina_comum": 0,
            "gasolina_aditivada": 0,
            "ethanol_comum": 0,
            "ethanol_aditivado": 0,
            "diesel_aditivado": 0,
            "latitude": -23.604700088501,
            "longitude": -46.675300598145
        },
        {
            "nome": "Fra-mar",
            "endereco": "Avenida Santo Amaro, 699 - Vila Nova Conceição, São Paulo - SP, Brasil",
            "gasolina_comum": 0,
            "gasolina_aditivada": 0,
            "ethanol_comum": 0,
            "ethanol_aditivado": 0,
            "diesel_aditivado": 0,
            "latitude": -23.591499328613,
            "longitude": -46.67259979248
        },
        {
            "nome": "Posto Petrobrás",
            "endereco": "Avenida Santo Amaro, 1543 - Vila Nova Conceição, São Paulo - SP, Brasil",
            "gasolina_comum": 0,
            "gasolina_aditivada": 0,
            "ethanol_comum": 0,
            "ethanol_aditivado": 0,
            "diesel_aditivado": 0,
            "latitude": -23.598899841309,
            "longitude": -46.673801422119
        },
        {
            "nome": "Posto Servico Irmaos Reis Ltda",
            "endereco": "Avenida Santo Amaro, 1280 - Vila Nova Conceição, São Paulo - SP, Brasil",
            "gasolina_comum": 0,
            "gasolina_aditivada": 0,
            "ethanol_comum": 0,
            "ethanol_aditivado": 0,
            "diesel_aditivado": 0,
            "latitude": -23.596399307251,
            "longitude": -46.673599243164
        },
        {
            "nome": "Sao Bento",
            "endereco": "Rua Jacques Felix, 752 - Vila Nova Conceição, São Paulo - SP, Brasil",
            "gasolina_comum": 0,
            "gasolina_aditivada": 0,
            "ethanol_comum": 0,
            "ethanol_aditivado": 0,
            "diesel_aditivado": 0,
            "latitude": -23.59460067749,
            "longitude": -46.671798706055
        },
        {
            "nome": "Claryn Auto Posto Ltda - Epp",
            "endereco": "Avenida   Flamingo, 379 a - Vila Nova Curuca, São Paulo - SP, Brasil",
            "gasolina_comum": 0,
            "gasolina_aditivada": 0,
            "ethanol_comum": 0,
            "ethanol_aditivado": 0,
            "diesel_aditivado": 0,
            "latitude": -23.511299133301,
            "longitude": -46.420700073242
        },
        {
            "nome": "Auto Posto Nova Manchester Ltda",
            "endereco": "Rua Tamainde, 42 - Vila Nova Manchester, São Paulo - SP, Brasil",
            "gasolina_comum": 0,
            "gasolina_aditivada": 0,
            "ethanol_comum": 0,
            "ethanol_aditivado": 0,
            "diesel_aditivado": 0,
            "latitude": -23.541000366211,
            "longitude": -46.541801452637
        },
        {
            "nome": "Posto de Serviços Recruta Ltda",
            "endereco": "Avenida Pastor Cicero Canuto de Lima, 401 - Vila Nova York, São Paulo - SP, Brasil",
            "gasolina_comum": 0,
            "gasolina_aditivada": 0,
            "ethanol_comum": 0,
            "ethanol_aditivado": 0,
            "diesel_aditivado": 0,
            "latitude": -23.579999923706,
            "longitude": -46.507598876953
        },
        {
            "nome": "Posto Ipiranga",
            "endereco": "Av.Helio Pelleg, 91 - Vila Olímpia, São Paulo - SP, Brasil",
            "gasolina_comum": 0,
            "gasolina_aditivada": 0,
            "ethanol_comum": 0,
            "ethanol_aditivado": 0,
            "diesel_aditivado": 0,
            "latitude": -23.5977,
            "longitude": -46.6772
        },
        {
            "nome": "Rede Risel",
            "endereco": "Av. Brg. Faria Lima - Vila Olimpia, São Paulo - SP, Brasil",
            "gasolina_comum": 0,
            "gasolina_aditivada": 0,
            "ethanol_comum": 0,
            "ethanol_aditivado": 0,
            "diesel_aditivado": 0,
            "latitude": -23.5931,
            "longitude": -46.6807
        }
    ]
}